[
    {
        "alt": 2618,
        "lat": 44.634,
        "lon": 5.907,
        "name": "NOEMA/PDBURE",
        "vex": "Nn"
    },
    {
        "alt": 2919,
        "lat": 37.066,
        "lon": -3.393,
        "name": "PICOVEL/IRAM30M",
        "vex": "Pv"
    },
    {
        "alt": 89,
        "lat": 76.535,
        "lon": -68.686,
        "name": "PITUFFIK/GLT",
        "vex": "Gl"
    },
    {
        "alt": 2857,
        "lat": -90.0,
        "lon": 45.0,
        "name": "SPT",
        "vex": "Sz"
    },
    {
        "alt": 5104,
        "lat": -23.006,
        "lon": -67.759,
        "name": "APEX",
        "vex": "Ax"
    },
    {
        "alt": 5070,
        "lat": -23.029,
        "lon": -67.755,
        "name": "ALMA",
        "vex": "Aa"
    },
    {
        "alt": 4593,
        "lat": 18.986,
        "lon": -97.315,
        "name": "LMT",
        "vex": "Lm"
    },
    {
        "alt": 1891,
        "lat": 31.953,
        "lon": -111.615,
        "name": "KITTPEAK",
        "vex": "Kt"
    },
    {
        "alt": 3159,
        "lat": 32.702,
        "lon": -109.891,
        "name": "SMTO",
        "vex": "Mg"
    },
    {
        "alt": 4115,
        "lat": 19.824,
        "lon": -155.478,
        "name": "SMAP",
        "vex": "Sw"
    },
    {
        "alt": 4120,
        "lat": 19.823,
        "lon": -155.477,
        "name": "JCMT",
        "vex": "Mm"
    },
    {
        "alt": 541,
        "lat": 37.533,
        "lon": 128.449,
        "name": "KVN-Pyeongchang"
    },
    {
        "alt": 122,
        "lat": 37.565,
        "lon": 126.941,
        "name": "KVN-Yonsei",
        "vex": "Ky"
    },
    {
        "alt": 2802,
        "lat": 31.043898,
        "lon": -115.463636,
        "name": "BAJA"
    },
    {
        "alt": 2364,
        "lat": 28.299309,
        "lon": -16.508709,
        "name": "CNI"
    },
    {
        "alt": 2342,
        "lat": -23.3393,
        "lon": 16.229246,
        "name": "GAM"
    },
    {
        "alt": 114,
        "lat": 42.623943,
        "lon": -71.488769,
        "name": "HAY"
    },
    {
        "alt": 2943,
        "lat": 41.096991,
        "lon": -105.976692,
        "name": "JELM"
    },
    {
        "alt": 2321,
        "lat": -29.031711,
        "lon": -70.685063,
        "name": "LAS"
    },
    {
        "alt": 4781,
        "lat": -24.192081,
        "lon": -66.474786,
        "name": "LLA"
    },
    {
        "alt": 1207,
        "lat": 37.231409,
        "lon": -118.282436,
        "name": "OVRO"
    },
    {
        "alt": 3216,
        "lat": 72.58,
        "lon": -38.459,
        "name": "GLTS"
    }
]
