[
    {
        "alt": 2618.0,
        "lat": 44.634,
        "lon": 5.907,
        "name": "PDBURE",
        "vex": "Nq"
    },
    {
        "alt": 2919.0,
        "lat": 37.066,
        "lon": -3.393,
        "name": "PICOVEL",
        "vex": "Pv"
    },
    {
        "alt": 89.0,
        "lat": 76.535,
        "lon": -68.686,
        "name": "THULE",
        "vex": "Gl"
    },
    {
        "alt": 2857.0,
        "lat": -90.0,
        "lon": 45.0,
        "name": "SPT",
        "vex": "Sz"
    },
    {
        "alt": 5104.0,
        "lat": -23.006,
        "lon": -67.759,
        "name": "APEX",
        "vex": "Ax"
    },
    {
        "alt": 5070.0,
        "lat": -23.029,
        "lon": -67.755,
        "name": "ALMA",
        "vex": "Aa"
    },
    {
        "alt": 4593.0,
        "lat": 18.986,
        "lon": -97.315,
        "name": "LMT",
        "vex": "Lm"
    },
    {
        "alt": 1891.0,
        "lat": 31.953,
        "lon": -111.615,
        "name": "KITTPEAK",
        "vex": "Kp"
    },
    {
        "alt": 3159.0,
        "lat": 32.702,
        "lon": -109.891,
        "name": "SMTO",
        "vex": "Mg"
    },
    {
        "alt": 4115.0,
        "lat": 19.824,
        "lon": -155.478,
        "name": "SMAP",
        "vex": "Sw"
    },
    {
        "alt": 4120.0,
        "lat": 19.823,
        "lon": -155.477,
        "name": "JCMT",
        "vex": "Mm"
    }
]
